% program   : RTKPOST ver.2.4.2
% obs_start : 2019/10/29 01:44:23.0 GPST
% obs_end   : 2019/10/29 01:54:54.0 GPST
% pos_mode  : ppp-static
% solution  : forward
% tropo opt : saastamoinen
% ephemeris : broadcast
% antenna1  : ( 0.0000  0.0000  0.0000)
% ====================================  END OF HEADER
%  GPST           x-ecef(m)             y-ecef(m)      z-ecef(m)   Q 
2018/10/29 01:44:23.000  3664880.9713          1409189.3944          5009618.4510  6 
2018/10/29 01:44:24.000  3664880.8767          1409190.0707          5009617.8049  6 
2018/10/29 01:44:25.000  3664882.0018          1409190.4325          5009617.4771  6 
2018/10/29 01:44:26.000  3664880.4992          1409191.3595          5009617.3536  1 
2018/10/29 01:44:27.000  3664880.3853          1409190.4246          5009617.5418  6 
2018/10/29 01:44:28.000  3664881.4912          1409190.5982          5009618.2678  6 
2018/10/29 01:44:29.000  3664880.9709          1409190.5239          5009618.4897  6 
2018/10/29 01:44:30.000  3664881.1126          1409190.2274          5009618.0367  6 
2018/10/29 01:44:31.000  3664882.0295          1409190.3877          5009619.3479  6 
2018/10/29 01:44:32.000  3664881.5297          1409190.8738          5009617.8659  6 
2018/10/29 01:44:33.000  3664880.9492          1409190.2713          5009617.7404  6 
2018/10/29 01:44:34.000  3664880.3101          1409190.7067          5009619.9233  6 
2018/10/29 01:44:35.000  3664880.5684          1409190.1397          5009618.2801  6 
2018/10/29 01:44:36.000  3664881.3163          1409191.0552          5009617.8446  6 
2018/10/29 01:44:37.000  3664882.2863          1409190.9006          5009618.0432  6 
2018/10/29 01:44:38.000  3664881.9263         1409191.1634          5009618.5086  2 
2018/10/29 01:44:39.000  3664880.6159         1409189.9152          5009618.1097  6 
2018/10/29 01:44:40.000  3664880.5642         1409190.8716          5009617.0069  6 
2018/10/29 01:44:41.000  3664880.5104         1409191.3519          5009616.7645  6 
2018/10/29 01:44:42.000  3664882.4322         1409191.3746          5009618.0000  6 
2018/10/29 01:44:43.000  3664880.9633         1409189.6667          5009618.7077  6 
2018/10/29 01:44:44.000  3664880.5260         1409190.8687          5009619.0230  6 
2018/10/29 01:44:45.000  3664880.5037         1409190.8360          5009617.9715  6 
2018/10/29 01:44:46.000  3664881.1593         1409190.6479          5009618.5097  6 
2018/10/29 01:44:47.000  3664880.5524         1409190.2467          5009617.4852  6 
2018/10/29 01:44:48.000  3664881.3473         1409191.0457          5009617.8219  6 
2018/10/29 01:44:49.000  3664882.0323         1409191.9173          5009618.2781  6 
2018/10/29 01:44:50.000  3664880.8960         1409190.1960          5009618.9126  6 
2018/10/29 01:44:51.000  3664881.1187         1409189.9549          5009618.5546  6 
2018/10/29 01:44:52.000  3664881.5219         1409191.3155          5009618.2963  6 
2018/10/29 01:44:53.000  3664880.2702         1409191.0846          5009619.8151  6 
2018/10/29 01:44:54.000  3664880.0133         1409190.4001          5009619.4511  6 
2018/10/29 01:44:55.000  3664880.4719         1409190.9157          5009617.5516  6 
2018/10/29 01:44:56.000  3664881.8987         1409189.2408          5009617.7729  6 
2018/10/29 01:44:57.000  3664880.3543         1409191.5026          5009618.3436  6 
2018/10/29 01:44:58.000  3664880.5678         1409190.1701          5009618.8042  6 
2018/10/29 01:44:59.000  3664881.8399         1409190.3086          5009618.2340  6 
2018/10/29 01:45:00.000  3664881.0160         1409190.4865          5009616.8441  6 
2018/10/29 01:45:01.000  3664880.1709         1409190.1737          5009618.1180  6 
2018/10/29 01:45:02.000  3664881.6605         1409191.1321          5009618.8281  6 
2018/10/29 01:45:03.000  3664879.7134         1409189.7741          5009618.1530  6 
2018/10/29 01:45:04.000  3664882.4780         1409190.4910          5009617.2141  6 
2018/10/29 01:45:05.000  3664881.2139         1409189.4126          5009618.1904  6 
2018/10/29 01:45:06.000  3664880.5602         1409191.2616          5009618.3777  6 
2018/10/29 01:45:07.000  3664880.2818         1409190.5799          5009619.6357  6 
2018/10/29 01:45:08.000  3664879.0924         1409189.8610          5009618.9211  6 
2018/10/29 01:45:09.000  3664880.1799         1409190.6610          5009617.6291  6 
2018/10/29 01:45:10.000  3664881.5156         1409189.8139          5009619.1800  6 
2018/10/29 01:45:11.000  3664880.6909         1409190.5111          5009616.4544  6 
2018/10/29 01:45:12.000  3664880.7502         1409189.0820          5009618.3000  6 
2018/10/29 01:45:13.000  3664879.9210         1409191.4277          5009618.2147  6 
2018/10/29 01:45:14.000  3664880.7693         1409191.3369          5009618.8731  6 
2018/10/29 01:45:15.000  3664882.4887         1409190.6199          5009617.2386  6 
2018/10/29 01:45:16.000  3664880.8752         1409190.7329          5009617.7978  6 
2018/10/29 01:45:17.000  3664880.8626         1409191.4941          5009616.9060  6 
2018/10/29 01:45:18.000  3664881.3118         1409190.2028          5009619.2568  6 
2018/10/29 01:45:19.000  3664881.3702         1409189.5248          5009618.4616  6 
2018/10/29 01:45:20.000  3664880.1588         1409189.8578          5009619.6336  6 
2018/10/29 01:45:21.000  3664881.1013         1409190.3152          5009617.1914  6 
2018/10/29 01:45:22.000  3664881.5541          1409190.9629          5009619.1764  6 
2018/10/29 01:45:23.000  3664881.2145          1409189.5663          5009618.0845  6 
2018/10/29 01:45:24.000  3664880.6343          1409190.5792          5009617.9279  6 
2018/10/29 01:45:25.000  3664881.6760          1409190.3786          5009619.2111  6 
2018/10/29 01:45:26.000  3664880.3695          1409191.6510          5009617.2180  1 
2018/10/29 01:45:27.000  3664881.2424          1409190.0806          5009618.1065  6 
2018/10/29 01:45:28.000  3664879.3458          1409189.4278          5009618.1492  6 
2018/10/29 01:45:29.000  3664881.2057          1409190.3101          5009618.1081  6 
2018/10/29 01:45:30.000  3664880.3248          1409190.8882          5009617.5678  6 
2018/10/29 01:45:31.000  3664881.6177          1409190.7526          5009620.2090  6 
2018/10/29 01:45:32.000  3664880.1534          1409190.6039          5009617.9324  6 
2018/10/29 01:45:33.000  3664880.6700          1409188.9753          5009618.7904  6 
2018/10/29 01:45:34.000  3664881.5785          1409190.8364       5009618.2139  6 
2018/10/29 01:45:35.000  3664881.0516          1409191.4871       5009617.6544  6 
2018/10/29 01:45:36.000  3664880.9680          1409189.6571       5009618.6913  6 
2018/10/29 01:45:37.000  3664879.4143          1409190.5536       5009617.4713  6 
2018/10/29 01:45:38.000  3664880.9066          1409191.5727       5009619.0573  3 
2018/10/29 01:45:39.000  3664880.0440          1409191.2774       5009618.6382  6 
2018/10/29 01:45:40.000  3664880.4336          1409189.2753       5009619.3942  6 
2018/10/29 01:45:41.000  3664880.8961          1409190.6860       5009618.4798  6 
2018/10/29 01:45:42.000  3664880.4936          1409189.6739       5009617.3021  6 
2018/10/29 01:45:43.000  3664881.5011          1409191.5400       5009618.7600  6 
2018/10/29 01:45:44.000  3664879.5388          1409190.6528       5009617.8590  3 
2018/10/29 01:45:45.000  3664880.8258          1409190.2795       5009619.7376  6 
2018/10/29 01:45:46.000  3664881.0129          1409189.5788       5009617.9692  6 
2018/10/29 01:45:47.000  3664880.0715          1409190.9355       5009617.3808  6 
2018/10/29 01:45:48.000  3664881.8871          1409190.8458       5009617.7499  3 
2018/10/29 01:45:49.000  3664881.0646          1409189.9938       5009617.8202  6 
2018/10/29 01:45:50.000  3664881.0205          1409189.7535       5009617.4041  6 
2018/10/29 01:45:51.000  3664880.7099          1409189.8798       5009618.3368  6 
2018/10/29 01:45:52.000  3664880.6973          1409191.5552       5009619.5265  6 
2018/10/29 01:45:53.000  3664881.2400          1409190.1136       5009619.1302  6 
2018/10/29 01:45:54.000  3664881.3975          1409190.2037          5009617.8602  6 
2018/10/29 01:45:55.000  3664880.1879          1409190.7176          5009619.1075  6 
2018/10/29 01:45:56.000  3664881.2144          1409190.4307          5009618.0546  6 
2018/10/29 01:45:57.000  3664880.9051          1409190.7781          5009617.9908  1 
2018/10/29 01:45:58.000  3664881.0095       1409189.9698          5009619.3156  6 
2018/10/29 01:45:59.000  3664881.4156       1409190.4317          5009618.3237  6 
2018/10/29 01:46:00.000  3664882.0826       1409190.6959          5009619.2953  1 
2018/10/29 01:46:01.000  3664880.9270       1409189.1008       5009618.7114  6 
2018/10/29 01:46:02.000  3664881.2116       1409190.0814       5009619.0274  6 
2018/10/29 01:46:03.000  3664881.5024       1409189.9908       5009618.0116  6 
2018/10/29 01:46:04.000  3664880.7490       1409190.8216       5009618.0159  6 
2018/10/29 01:46:05.000  3664881.0930       1409189.8659       5009616.4878  6 
2018/10/29 01:46:06.000  3664880.9308       1409189.5325       5009618.1808  6 
2018/10/29 01:46:07.000  3664879.9141       1409191.1026          5009618.2128  6 
2018/10/29 01:46:08.000  3664880.9667       1409190.6553          5009618.8956  6 
2018/10/29 01:46:09.000  3664880.4214       1409191.3815          5009618.5921  5 
2018/10/29 01:46:10.000  3664880.9297       1409189.9327          5009619.2738  6 
2018/10/29 01:46:11.000  3664881.7172       1409190.8005          5009617.5131  6 
2018/10/29 01:46:12.000  3664882.2240          1409190.4189          5009618.5682  6 
2018/10/29 01:46:13.000  3664880.3573          1409190.5034          5009619.0746  6 
2018/10/29 01:46:14.000  3664880.6367          1409191.0210          5009618.2861  6 
2018/10/29 01:46:15.000  3664881.4318          1409190.0148          5009618.5505  6 
2018/10/29 01:46:16.000  3664881.3419          1409190.5568          5009617.7382  6 
2018/10/29 01:46:17.000  3664880.5194          1409189.3851          5009619.5303  6 
2018/10/29 01:46:18.000  3664881.1005          1409189.3393          5009617.2685  6 
2018/10/29 01:46:19.000  3664881.1827          1409190.4563          5009617.3046  6 
2018/10/29 01:46:20.000  3664881.3068          1409189.4686          5009618.0692  6 
2018/10/29 01:46:21.000  3664881.3943          1409190.6373          5009618.8302  6 
2018/10/29 01:46:22.000  3664880.8079          1409190.1658          5009617.6610  6 
2018/10/29 01:46:23.000  3664882.4990          1409190.3910          5009618.9278  6 
2018/10/29 01:46:24.000  3664880.1804          1409190.2327          5009619.4723  6 
2018/10/29 01:46:25.000  3664880.9796          1409190.6509          5009617.7490  6 
2018/10/29 01:46:26.000  3664880.5064          1409190.7972          5009618.1528  6 
2018/10/29 01:46:27.000  3664881.3518          1409190.6906          5009618.2216  6 
2018/10/29 01:46:28.000  3664881.2323      1409190.3591          5009617.4218  6 
2018/10/29 01:46:29.000  3664880.1727      1409188.5591          5009618.2398  6 
2018/10/29 01:46:30.000  3664879.5260      1409190.5477          5009618.0117  6 
2018/10/29 01:46:31.000  3664882.4124      1409190.7672          5009618.5212  6 
2018/10/29 01:46:32.000  3664880.2898      1409190.7612          5009616.6910  6 
2018/10/29 01:46:33.000  3664880.6826      1409190.3930          5009617.4807  6 
2018/10/29 01:46:34.000  3664881.0976      1409190.7608          5009618.0180  6 
2018/10/29 01:46:35.000  3664879.9181      1409190.1084          5009618.4202  6 
2018/10/29 01:46:36.000  3664881.1745      1409190.4144          5009618.7445  6 
2018/10/29 01:46:37.000  3664880.3493      1409190.2093          5009617.8083  6 
2018/10/29 01:46:38.000  3664880.2920      1409191.0540          5009618.1942  6 
2018/10/29 01:46:39.000  3664881.2061      1409190.1034          5009619.1755  6 
2018/10/29 01:46:40.000  3664880.9757      1409191.3717          5009618.2283  6 
2018/10/29 01:46:41.000  3664881.1199      1409189.2551          5009616.6827  6 
2018/10/29 01:46:42.000  3664880.4604      1409189.9295          5009620.0639  6 
2018/10/29 01:46:43.000  3664881.1371      1409190.2730          5009618.5828  6 
2018/10/29 01:46:44.000  3664880.4732      1409190.3002          5009617.6852  6 
2018/10/29 01:46:45.000  3664879.6228      1409191.8139          5009617.5123  6 
2018/10/29 01:46:46.000  3664881.0913      1409190.4834          5009616.6903  6 
2018/10/29 01:46:47.000  3664881.0460          1409189.7029          5009617.1867  6 
2018/10/29 01:46:48.000  3664879.6034          1409190.2789          5009617.0678  6 
2018/10/29 01:46:49.000  3664881.3752          1409191.7413          5009618.3628  6 
2018/10/29 01:46:50.000  3664881.0977          1409189.9354          5009619.4760  6 
2018/10/29 01:46:51.000  3664880.8063          1409189.5210          5009618.3248  6 
2018/10/29 01:46:52.000  3664878.9267          1409190.2639          5009618.3224  6 
2018/10/29 01:46:53.000  3664882.4247          1409191.0017          5009618.2125  6 
2018/10/29 01:46:54.000  3664880.5685          1409190.6003          5009618.0812  6 
2018/10/29 01:46:55.000  3664881.9703          1409190.0087          5009619.0837  6 
2018/10/29 01:46:56.000  3664882.4072          1409188.0871          5009618.9263  6 
2018/10/29 01:46:57.000  3664881.6768          1409189.3459          5009618.7990  6 
2018/10/29 01:46:58.000  3664880.4349          1409189.8696          5009618.2644  6 
2018/10/29 01:46:59.000  3664881.6790          1409191.4838          5009618.0653  6 
2018/10/29 01:47:00.000  3664880.8245          1409189.6668          5009619.1705  6 
2018/10/29 01:47:01.000  3664880.5418          1409190.1882          5009617.7069  6 
2018/10/29 01:47:02.000  3664881.3972          1409189.9855          5009617.6096  6 
2018/10/29 01:47:03.000  3664881.0507       1409190.4729          5009618.2734  6 
2018/10/29 01:47:04.000  3664881.2143       1409190.7221          5009617.8809  6 
2018/10/29 01:47:05.000  3664881.3871       1409190.3035          5009619.4579  6 
2018/10/29 01:47:06.000  3664880.7468       1409190.1065          5009618.4842  6 
2018/10/29 01:47:07.000  3664880.3483       1409191.2853          5009618.1822  6 
2018/10/29 01:47:08.000  3664879.6854       1409190.0411          5009618.5788  6 
2018/10/29 01:47:09.000  3664880.8478       1409190.5436          5009617.8689  6 
2018/10/29 01:47:10.000  3664880.5768       1409190.0033          5009618.0203  6 
2018/10/29 01:47:11.000  3664881.5177       1409189.5373          5009619.3922  6 
2018/10/29 01:47:12.000  3664880.8583       1409191.5669          5009617.1538  6 
2018/10/29 01:47:13.000  3664881.5002       1409190.6736          5009617.8609  6 
2018/10/29 01:47:14.000  3664881.4676       1409190.7334          5009618.4378  6 
2018/10/29 01:47:15.000  3664881.7425       1409189.2231          5009618.2467  6 
2018/10/29 01:47:16.000  3664879.8395       1409190.6045          5009618.0225  6 
2018/10/29 01:47:17.000  3664881.5896       1409190.9718          5009617.5427  6 
2018/10/29 01:47:18.000  3664880.7815       1409191.0213          5009618.1116  6 
2018/10/29 01:47:19.000  3664881.0841       1409191.5790          5009618.6390  6 
2018/10/29 01:47:20.000  3664880.3978       1409190.5219          5009619.3014  6 
2018/10/29 01:47:21.000  3664880.4506          1409188.5020          5009618.8528  6 
2018/10/29 01:47:22.000  3664880.7172          1409189.8760          5009617.7540  6 
2018/10/29 01:47:23.000  3664881.2359          1409190.9416          5009618.6435  6 
2018/10/29 01:47:24.000  3664880.9224          1409190.6291          5009617.6889  6 
2018/10/29 01:47:25.000  3664879.7813          1409190.7715          5009618.0114  6 
2018/10/29 01:47:26.000  3664880.5155          1409189.6069          5009619.4614  6 
2018/10/29 01:47:27.000  3664880.2132          1409189.8129          5009618.5176  6 
2018/10/29 01:47:28.000  3664880.2926          1409190.9652          5009618.8474  6 
2018/10/29 01:47:29.000  3664880.3065          1409191.1716          5009618.9165  6 
2018/10/29 01:47:30.000  3664881.1493          1409190.5489          5009618.6094  1 
2018/10/29 01:47:31.000  3664881.8510          1409189.8836      5009618.1337  1 
2018/10/29 01:47:32.000  3664881.1289          1409190.8053      5009619.7237  1 
2018/10/29 01:47:33.000  3664880.7264          1409190.1336      5009617.4451  1 
2018/10/29 01:47:34.000  3664880.9470          1409189.4846      5009617.5867  1 
2018/10/29 01:47:35.000  3664882.1433          1409189.9736      5009617.1926  1 
2018/10/29 01:47:36.000  3664880.9126          1409191.5510      5009618.1719  1 
2018/10/29 01:47:37.000  3664880.4866          1409190.6185      5009618.0913  1 
2018/10/29 01:47:38.000  3664881.2169          1409190.7624      5009618.8304  1 
2018/10/29 01:47:39.000  3664881.0182          1409190.0625      5009617.9926  6 
2018/10/29 01:47:40.000  3664880.0620          1409190.6729      5009617.2383  6 
2018/10/29 01:47:41.000  3664879.8881          1409190.6250      5009619.1775  6 
2018/10/29 01:47:42.000  3664880.5224          1409190.6568      5009617.7805  6 
2018/10/29 01:47:43.000  3664880.1089          1409189.7946      5009618.4275  6 
2018/10/29 01:47:44.000  3664880.2672          1409190.3417      5009618.0791  6 
2018/10/29 01:47:45.000  3664880.3091          1409191.1517      5009616.8853  6 
2018/10/29 01:47:46.000  3664880.9524          1409190.8433      5009619.5469  6 
2018/10/29 01:47:47.000  3664880.5118          1409190.2952      5009618.9818  6 
2018/10/29 01:47:48.000  3664882.5380          1409191.7139      5009618.4928  6 
2018/10/29 01:47:49.000  3664881.2596          1409190.1526      5009618.0738  6 
2018/10/29 01:47:50.000  3664882.2769          1409190.5563      5009617.3449  6 
2018/10/29 01:47:51.000  3664880.4037          1409189.1517      5009618.6245  6 
2018/10/29 01:47:52.000  3664881.0474          1409189.8042      5009618.6096  6 
2018/10/29 01:47:53.000  3664880.7068          1409190.2300      5009618.0393  6 
2018/10/29 01:47:54.000  3664881.1882          1409190.4583      5009618.9453  6 
2018/10/29 01:47:55.000  3664881.4642          1409190.7805      5009618.1186  6 
2018/10/29 01:47:56.000  3664881.8757          1409190.7157      5009618.3011  6 
2018/10/29 01:47:57.000  3664880.8445          1409189.2963          5009618.7024  6 
2018/10/29 01:47:58.000  3664881.3515          1409191.2231          5009618.6462  6 
2018/10/29 01:47:59.000  3664881.3559          1409191.0603          5009618.4057  6 
2018/10/29 01:48:00.000  3664881.4641          1409190.3438          5009618.8730  1 
2018/10/29 01:48:01.000  3664879.9365          1409189.8471          5009618.7221  1 
2018/10/29 01:48:02.000  3664879.7312          1409189.9403          5009619.0361  1 
2018/10/29 01:48:03.000  3664880.1513          1409189.6787          5009618.2179  1 
2018/10/29 01:48:04.000  3664880.0400          1409189.7623          5009617.9108  6 
2018/10/29 01:48:05.000  3664881.1109          1409190.4742          5009618.3933  6 
2018/10/29 01:48:06.000  3664881.3770          1409189.7150          5009617.9807  6 
2018/10/29 01:48:07.000  3664881.1221          1409191.2790          5009618.2492  6 
2018/10/29 01:48:08.000  3664881.3386          1409190.3438          5009617.9914  6 
2018/10/29 01:48:09.000  3664880.8543          1409190.5768          5009617.3476  6 
2018/10/29 01:48:10.000  3664881.1333          1409190.4054          5009619.4042  6 
2018/10/29 01:48:11.000  3664880.3819          1409189.3799          5009619.3001  6 
2018/10/29 01:48:12.000  3664880.1975          1409190.4193          5009617.4990  6 
2018/10/29 01:48:13.000  3664881.2393          1409189.6844          5009618.5348  6 
2018/10/29 01:48:14.000  3664880.6864          1409189.9304          5009618.5858  6 
2018/10/29 01:48:15.000  3664881.0119          1409191.2999          5009619.1366  6 
2018/10/29 01:48:16.000  3664880.6478          1409190.2448        5009618.4014  6 
2018/10/29 01:48:17.000  3664881.4311          1409190.1756        5009619.4346  1 
2018/10/29 01:48:18.000  3664882.5622          1409190.0653        5009618.2476  6 
2018/10/29 01:48:19.000  3664879.4581          1409191.0878        5009618.7361  6 
2018/10/29 01:48:20.000  3664881.8036          1409190.2384        5009617.3624  6 
2018/10/29 01:48:21.000  3664881.1925          1409190.9173        5009619.4265  6 
2018/10/29 01:48:22.000  3664880.5496          1409190.3475        5009618.5156  6 
2018/10/29 01:48:23.000  3664881.7248          1409189.9574        5009617.4385  6 
2018/10/29 01:48:24.000  3664880.4493          1409190.3233        5009617.6215  6 
2018/10/29 01:48:25.000  3664881.3281          1409190.1853        5009617.8684  6 
2018/10/29 01:48:26.000  3664881.2146          1409190.7628        5009617.6392  6 
2018/10/29 01:48:27.000  3664881.2282          1409191.0796        5009618.5459  6 
2018/10/29 01:48:28.000  3664881.4398          1409189.1197        5009617.3901  6 
2018/10/29 01:48:29.000  3664880.7544          1409192.3466        5009618.5447  6 
2018/10/29 01:48:30.000  3664879.9358          1409190.4330        5009618.6350  6 
2018/10/29 01:48:31.000  3664880.0567          1409190.6967        5009618.1107  6 
2018/10/29 01:48:32.000  3664881.4480          1409191.0381        5009618.1558  6 
2018/10/29 01:48:33.000  3664882.0292          1409188.9478        5009618.2780  6 
2018/10/29 01:48:34.000  3664880.1213          1409190.3246        5009617.5465  6 
2018/10/29 01:48:35.000  3664879.6466          1409190.0584        5009617.9744  6 
2018/10/29 01:48:36.000  3664880.7463          1409190.4525        5009618.7212  6 
2018/10/29 01:48:37.000  3664881.1266          1409190.3536        5009617.6398  6 
2018/10/29 01:48:38.000  3664881.6334          1409191.2581        5009618.0867  6 
2018/10/29 01:48:39.000  3664882.1458          1409191.2520        5009617.8414  6 
2018/10/29 01:48:40.000  3664881.9743          1409189.9924        5009619.2937  6 
2018/10/29 01:48:41.000  3664880.9056          1409190.5165        5009618.3164  6 
2018/10/29 01:48:42.000  3664879.6420          1409189.3896        5009618.1996  6 
2018/10/29 01:48:43.000  3664880.9517          1409189.9137        5009618.5062  6 
2018/10/29 01:48:44.000  3664880.9476    1409191.2055        5009618.2914  6 
2018/10/29 01:48:45.000  3664881.7945    1409191.8904        5009619.1493  6 
2018/10/29 01:48:46.000  3664880.7164    1409189.7572        5009618.7402  6 
2018/10/29 01:48:47.000  3664880.9133    1409190.3956        5009618.5378  6 
2018/10/29 01:48:48.000  3664880.9586    1409190.2397        5009617.9403  6 
2018/10/29 01:48:49.000  3664881.6967    1409190.3144        5009618.3194  6 
2018/10/29 01:48:50.000  3664881.7275    1409191.0898        5009618.1988  6 
2018/10/29 01:48:51.000  3664880.9679    1409190.2143        5009618.4261  6 
2018/10/29 01:48:52.000  3664881.1514    1409190.7776        5009617.9279  6 
2018/10/29 01:48:53.000  3664880.3293    1409190.9165        5009618.2991  6 
2018/10/29 01:48:54.000  3664880.6392    1409190.1674        5009617.9859  6 
2018/10/29 01:48:55.000  3664880.3659    1409190.8393        5009618.2638  6 
2018/10/29 01:48:56.000  3664879.9959    1409191.1571        5009619.4510  6 
2018/10/29 01:48:57.000  3664880.3035    1409189.8632        5009618.0891  6 
2018/10/29 01:48:58.000  3664881.0200    1409190.5658          5009617.8584  6 
2018/10/29 01:48:59.000  3664881.1983    1409191.2317          5009618.6463  6 
2018/10/29 01:49:00.000  3664880.3761    1409188.9046          5009617.8030  6 
2018/10/29 01:49:01.000  3664882.1082    1409189.7294          5009618.3822  6 
2018/10/29 01:49:02.000  3664880.1000    1409190.0400          5009619.8574  6 
2018/10/29 01:49:03.000  3664881.1140    1409191.1254          5009617.9221  6 
2018/10/29 01:49:04.000  3664880.6642    1409190.4318          5009617.4521  6 
2018/10/29 01:49:05.000  3664880.4073    1409190.4575          5009618.9443  6 
2018/10/29 01:49:06.000  3664880.2872    1409191.3874          5009619.5366  6 
2018/10/29 01:49:07.000  3664881.4982    1409190.9756          5009618.1281  6 
2018/10/29 01:49:08.000  3664881.3561    1409191.3402          5009617.4217  6 
2018/10/29 01:49:09.000  3664880.0247    1409190.2819          5009618.8577  6 
2018/10/29 01:49:10.000  3664880.7310    1409189.4600          5009618.1049  6 
2018/10/29 01:49:11.000  3664879.7069          1409191.7514          5009617.9227  6 
2018/10/29 01:49:12.000  3664880.2550          1409191.0089          5009617.2416  6 
2018/10/29 01:49:13.000  3664881.2394          1409192.2472          5009618.5773  6 
2018/10/29 01:49:14.000  3664881.6651          1409190.3959          5009618.1353  6 
2018/10/29 01:49:15.000  3664880.7776          1409189.5310          5009618.9141  6 
2018/10/29 01:49:16.000  3664880.9015          1409190.7402          5009619.0179  6 
2018/10/29 01:49:17.000  3664879.5310          1409189.7894          5009618.4272  6 
2018/10/29 01:49:18.000  3664881.2482          1409189.4449          5009616.6674  6 
2018/10/29 01:49:19.000  3664880.3120          1409189.0711          5009617.1961  6 
2018/10/29 01:49:20.000  3664880.8045          1409190.7831          5009619.7862  6 
2018/10/29 01:49:21.000  3664880.5315          1409189.9218          5009617.2465  6 
2018/10/29 01:49:22.000  3664880.2500          1409191.3392          5009617.9974  6 
2018/10/29 01:49:23.000  3664880.8931       1409189.6859          5009619.4126  6 
2018/10/29 01:49:24.000  3664881.3840       1409189.3300          5009618.4545  1 
2018/10/29 01:49:25.000  3664881.5109       1409190.4154          5009617.7282  1 
2018/10/29 01:49:26.000  3664880.7080       1409191.0884          5009617.1877  1 
2018/10/29 01:49:27.000  3664880.5957       1409190.8567          5009619.0042  6 
2018/10/29 01:49:28.000  3664880.8926       1409188.7282          5009618.4274  6 
2018/10/29 01:49:29.000  3664881.9572       1409190.6721          5009618.1409  6 
2018/10/29 01:49:30.000  3664879.9728       1409189.1581          5009618.2604  6 
2018/10/29 01:49:31.000  3664880.7666       1409191.0191          5009617.9217  1 
2018/10/29 01:49:32.000  3664880.5356       1409190.6085          5009618.9640  6 
2018/10/29 01:49:33.000  3664881.5171       1409189.7161          5009618.6518  6 
2018/10/29 01:49:34.000  3664880.9680       1409190.2578        5009617.8257  6 
2018/10/29 01:49:35.000  3664880.9217       1409188.9276        5009617.9251  6 
2018/10/29 01:49:36.000  3664880.8187       1409190.6380        5009618.8827  6 
2018/10/29 01:49:37.000  3664879.4600       1409190.6787        5009617.8226  6 
2018/10/29 01:49:38.000  3664880.5409       1409190.5500        5009618.0859  6 
2018/10/29 01:49:39.000  3664880.7732       1409190.3825        5009618.7940  6 
2018/10/29 01:49:40.000  3664880.0899       1409191.9062        5009617.8879  6 
2018/10/29 01:49:41.000  3664881.2418       1409191.8467        5009617.8939  6 
2018/10/29 01:49:42.000  3664880.8271       1409191.5832        5009617.5518  6 
2018/10/29 01:49:43.000  3664880.5865       1409189.1504        5009617.9272  1 
2018/10/29 01:49:44.000  3664880.7107       1409191.4348        5009619.7567  1 
2018/10/29 01:49:45.000  3664880.4602       1409191.2622        5009618.3475  1 
2018/10/29 01:49:46.000  3664880.8470       1409190.8025        5009617.7456  1 
2018/10/29 01:49:47.000  3664880.6751       1409191.0007        5009618.2516  1 
2018/10/29 01:49:48.000  3664879.6693       1409191.6766        5009618.2645  6 
2018/10/29 01:49:49.000  3664881.9564       1409189.8763        5009618.4760  6 
2018/10/29 01:49:50.000  3664881.5511       1409190.5131        5009617.7504  6 
2018/10/29 01:49:51.000  3664881.1705       1409191.4205        5009618.9779  6 
2018/10/29 01:49:52.000  3664881.6542       1409191.2592        5009618.9112  6 
2018/10/29 01:49:53.000  3664881.9730       1409190.2602        5009616.9134  6 
2018/10/29 01:49:54.000  3664880.0120       1409189.8405          5009617.9586  6 
2018/10/29 01:49:55.000  3664880.3721       1409189.8431          5009617.8369  6 
2018/10/29 01:49:56.000  3664880.4673       1409189.8767          5009618.1309  6 
2018/10/29 01:49:57.000  3664880.9842       1409191.1240          5009618.5894  6 
2018/10/29 01:49:58.000  3664880.4245       1409191.1475          5009618.4169  6 
2018/10/29 01:49:59.000  3664880.8917       1409190.3006          5009618.1106  6 
2018/10/29 01:50:00.000  3664879.9294       1409191.1625          5009617.9282  6 
2018/10/29 01:50:01.000  3664880.1672       1409190.1234     5009619.0548  6 
2018/10/29 01:50:02.000  3664879.9297       1409190.2446     5009620.0958  6 
2018/10/29 01:50:03.000  3664880.4507       1409191.6653     5009618.1726  6 
2018/10/29 01:50:04.000  3664880.1424       1409190.8316     5009617.8015  6 
2018/10/29 01:50:05.000  3664880.2914       1409190.0906     5009618.5029  6 
2018/10/29 01:50:06.000  3664880.0512       1409190.1349     5009618.2309  6 
2018/10/29 01:50:07.000  3664881.0646       1409190.0100          5009619.4401  6 
2018/10/29 01:50:08.000  3664880.1086       1409189.7941          5009617.7828  6 
2018/10/29 01:50:09.000  3664880.4796       1409190.5866          5009619.6210  6 
2018/10/29 01:50:10.000  3664880.9875       1409190.8418          5009619.2421  6 
2018/10/29 01:50:11.000  3664880.7457       1409188.8169          5009617.9568  6 
2018/10/29 01:50:12.000  3664881.5104       1409190.8947          5009617.1040  6 
2018/10/29 01:50:13.000  3664880.7870       1409191.0119          5009617.8391  6 
2018/10/29 01:50:14.000  3664881.9655       1409191.1379          5009618.3878  6 
2018/10/29 01:50:15.000  3664879.9658          1409191.5928          5009618.3176  6 
2018/10/29 01:50:16.000  3664880.7552          1409190.9269          5009616.6742  6 
2018/10/29 01:50:17.000  3664880.1260          1409190.4812          5009617.9501  6 
2018/10/29 01:50:18.000  3664881.3155          1409189.6535          5009617.9375  6 
2018/10/29 01:50:19.000  3664880.1331          1409191.4111          5009618.7846  6 
2018/10/29 01:50:20.000  3664881.1902          1409191.0774          5009619.0217  1 
2018/10/29 01:50:21.000  3664881.0400          1409189.9856          5009617.5530  6 
2018/10/29 01:50:22.000  3664882.5335          1409190.3500          5009618.0410  6 
2018/10/29 01:50:23.000  3664880.9192        1409191.1382          5009618.3164  6 
2018/10/29 01:50:24.000  3664882.3579        1409189.0327          5009616.9550  6 
2018/10/29 01:50:25.000  3664882.1068        1409190.2653          5009617.8908  6 
2018/10/29 01:50:26.000  3664881.5152        1409189.6135          5009617.8502  6 
2018/10/29 01:50:27.000  3664881.6560        1409190.0742          5009616.7276  6 
2018/10/29 01:50:28.000  3664881.3335     1409190.8842          5009617.3549  6 
2018/10/29 01:50:29.000  3664880.2305     1409191.9801          5009618.7403  6 
2018/10/29 01:50:30.000  3664881.8288     1409189.9033          5009617.9434  6 
2018/10/29 01:50:31.000  3664880.0593     1409190.5551          5009617.7607  6 
2018/10/29 01:50:32.000  3664881.1545     1409190.8994          5009618.3351  6 
2018/10/29 01:50:33.000  3664880.9552     1409189.5246          5009619.0543  6 
2018/10/29 01:50:34.000  3664881.0414        1409191.5039          5009616.8115  6 
2018/10/29 01:50:35.000  3664879.4521        1409190.2179          5009619.0294  6 
2018/10/29 01:50:36.000  3664881.6460        1409191.3051          5009617.6259  6 
2018/10/29 01:50:37.000  3664880.1879        1409190.9348          5009618.8559  6 
2018/10/29 01:50:38.000  3664881.4811        1409190.7902       5009618.3287  6 
2018/10/29 01:50:39.000  3664880.8769        1409192.1042       5009618.3947  6 
2018/10/29 01:50:40.000  3664881.1530        1409189.3526       5009617.0000  6 
2018/10/29 01:50:41.000  3664881.3020        1409190.8713       5009618.6892  6 
2018/10/29 01:50:42.000  3664880.2403        1409189.2895       5009618.0846  6 
2018/10/29 01:50:43.000  3664880.8550        1409190.7231       5009618.8445  6 
2018/10/29 01:50:44.000  3664881.0481        1409189.6926       5009618.8989  6 
2018/10/29 01:50:45.000  3664881.0116        1409191.2346          5009618.4881  6 
2018/10/29 01:50:46.000  3664879.8493        1409189.4589          5009617.8085  6 
2018/10/29 01:50:47.000  3664880.9905        1409191.1606          5009619.9573  6 
2018/10/29 01:50:48.000  3664879.7656        1409191.1686          5009618.3493  6 
2018/10/29 01:50:49.000  3664880.3883        1409189.9087          5009618.2822  6 
2018/10/29 01:50:50.000  3664880.7899        1409190.8101          5009617.2144  6 
2018/10/29 01:50:51.000  3664880.8999        1409188.8808          5009617.8736  6 
2018/10/29 01:50:52.000  3664881.2338        1409190.6308          5009618.9405  6 
2018/10/29 01:50:53.000  3664879.5107        1409190.3987          5009617.5235  6 
2018/10/29 01:50:54.000  3664881.8017        1409190.4897          5009618.0213  6 
2018/10/29 01:50:55.000  3664881.5840        1409191.2803          5009617.4651  6 
2018/10/29 01:50:56.000  3664880.6415        1409189.4378          5009617.9180  6 
2018/10/29 01:50:57.000  3664880.4052        1409190.5896          5009619.3803  6 
2018/10/29 01:50:58.000  3664880.2268        1409190.3175          5009617.1698  6 
2018/10/29 01:50:59.000  3664881.1645     1409190.3682          5009618.9287  6 
2018/10/29 01:51:00.000  3664880.2497     1409190.3585          5009617.9922  6 
2018/10/29 01:51:01.000  3664881.1766     1409190.0921          5009617.1230  6 
2018/10/29 01:51:02.000  3664880.8617     1409190.0849          5009617.1195  6 
2018/10/29 01:51:03.000  3664880.4502     1409189.3292          5009618.3674  6 
2018/10/29 01:51:04.000  3664880.5692     1409189.8838          5009617.9241  6 
2018/10/29 01:51:05.000  3664880.5793     1409190.9738          5009618.2995  6 
2018/10/29 01:51:06.000  3664881.6628     1409189.8772          5009618.7427  6 
2018/10/29 01:51:07.000  3664879.7504     1409189.9854          5009616.9133  1 
2018/10/29 01:51:08.000  3664881.6897        1409190.2017          5009618.5405  6 
2018/10/29 01:51:09.000  3664880.5729        1409190.2897          5009617.8648  6 
2018/10/29 01:51:10.000  3664881.2412        1409190.7522          5009618.2001  6 
2018/10/29 01:51:11.000  3664881.2692        1409191.4362          5009617.9958  6 
2018/10/29 01:51:12.000  3664881.1660        1409189.7075          5009617.6651  6 
2018/10/29 01:51:13.000  3664881.1955        1409190.9683          5009617.3061  6 
2018/10/29 01:51:14.000  3664881.2337        1409189.9198          5009618.4975  6 
2018/10/29 01:51:15.000  3664880.1251        1409189.9880          5009617.7363  6 
2018/10/29 01:51:16.000  3664881.5777        1409190.9890          5009619.7678  6 
2018/10/29 01:51:17.000  3664880.8301        1409188.8775          5009618.5130  6 
2018/10/29 01:51:18.000  3664882.0550        1409190.3889          5009617.4893  6 
2018/10/29 01:51:19.000  3664880.6669        1409190.8497          5009618.5357  6 
2018/10/29 01:51:20.000  3664880.3311          1409190.1798          5009618.3112  6 
2018/10/29 01:51:21.000  3664879.8910          1409189.3005          5009619.7972  6 
2018/10/29 01:51:22.000  3664879.8966          1409189.4748          5009617.6366  6 
2018/10/29 01:51:23.000  3664881.7578          1409190.8171          5009617.9427  6 
2018/10/29 01:51:24.000  3664880.9986          1409191.2563          5009617.8359  6 
2018/10/29 01:51:25.000  3664880.2107          1409190.7861          5009619.0821  6 
2018/10/29 01:51:26.000  3664880.1875          1409190.7210          5009618.4471  6 
2018/10/29 01:51:27.000  3664881.2329          1409190.2106          5009618.5874  6 
2018/10/29 01:51:28.000  3664881.1729          1409190.6646          5009619.2761  1 
2018/10/29 01:51:29.000  3664880.5489          1409189.7487          5009618.0194  6 
2018/10/29 01:51:30.000  3664879.7363          1409190.3159          5009617.2778  6 
2018/10/29 01:51:31.000  3664880.2157          1409191.5051          5009618.5358  6 
2018/10/29 01:51:32.000  3664881.2629          1409191.1175          5009619.1450  6 
2018/10/29 01:51:33.000  3664882.2167          1409192.1277          5009619.1565  6 
2018/10/29 01:51:34.000  3664880.4488          1409190.1037          5009617.2771  6 
2018/10/29 01:51:35.000  3664880.3959          1409190.4654          5009618.3953  6 
2018/10/29 01:51:36.000  3664880.1627          1409191.4481          5009618.2124  6 
2018/10/29 01:51:37.000  3664880.0765          1409191.5883          5009619.1349  6 
2018/10/29 01:51:38.000  3664881.3735          1409191.2309          5009619.6303  6 
2018/10/29 01:51:39.000  3664880.0268          1409191.9490          5009617.7511  6 
2018/10/29 01:51:40.000  3664879.8747          1409191.8762          5009618.0188  6 
2018/10/29 01:51:41.000  3664881.6667          1409190.7406          5009617.4141  6 
2018/10/29 01:51:42.000  3664879.6898          1409189.9689          5009617.7882  6 
2018/10/29 01:51:43.000  3664880.8430          1409190.7711          5009617.6341  6 
2018/10/29 01:51:44.000  3664881.1346          1409189.5214          5009617.6028  6 
2018/10/29 01:51:45.000  3664880.1814          1409190.9737          5009618.4160  6 
2018/10/29 01:51:46.000  3664880.3134          1409190.0394          5009618.7088  6 
2018/10/29 01:51:47.000  3664880.2216          1409190.2590          5009617.6440  6 
2018/10/29 01:51:48.000  3664882.3228          1409190.8900          5009619.0389  6 
2018/10/29 01:51:49.000  3664881.0881          1409189.5322          5009618.9774  6 
2018/10/29 01:51:50.000  3664880.3966          1409189.7181          5009618.6276  6 
2018/10/29 01:51:51.000  3664881.6658          1409190.5930          5009617.9200  6 
2018/10/29 01:51:52.000  3664880.2144          1409191.0770          5009618.3705  6 
2018/10/29 01:51:53.000  3664881.5489          1409189.5861          5009618.1649  6 
2018/10/29 01:51:54.000  3664880.5910          1409191.2010          5009619.2952  6 
2018/10/29 01:51:55.000  3664881.1211          1409190.3571          5009618.5256  6 
2018/10/29 01:51:56.000  3664881.0188          1409189.0719          5009617.8639  6 
2018/10/29 01:51:57.000  3664879.2118       1409190.8856          5009617.9781  6 
2018/10/29 01:51:58.000  3664881.5630       1409190.1646          5009618.2900  6 
2018/10/29 01:51:59.000  3664881.0291       1409190.9837          5009617.7368  6 
2018/10/29 01:52:00.000  3664880.8994       1409190.4102          5009618.2245  6 
2018/10/29 01:52:01.000  3664881.1953       1409189.0781          5009617.5299  6 
2018/10/29 01:52:02.000  3664879.9291       1409190.7736          5009618.3701  6 
2018/10/29 01:52:03.000  3664882.0161       1409189.4380          5009618.7244  1 
2018/10/29 01:52:04.000  3664880.4391       1409189.0859          5009617.4948  1 
2018/10/29 01:52:05.000  3664880.1185       1409189.4287          5009619.3064  1 
2018/10/29 01:52:06.000  3664879.8680       1409191.0499          5009618.4735  6 
2018/10/29 01:52:07.000  3664880.9851       1409188.8157          5009618.8826  6 
2018/10/29 01:52:08.000  3664881.8470          1409190.2790          5009618.3275  6 
2018/10/29 01:52:09.000  3664880.6281          1409191.2566          5009619.2978  6 
2018/10/29 01:52:10.000  3664880.6014          1409190.0312          5009618.8796  6 
2018/10/29 01:52:11.000  3664880.5109          1409191.4936          5009618.0697  6 
2018/10/29 01:52:12.000  3664881.2403          1409189.6805          5009618.3442  6 
2018/10/29 01:52:13.000  3664881.9228          1409189.7453          5009618.8595  6 
2018/10/29 01:52:14.000  3664882.3706          1409190.4722          5009618.5297  6 
2018/10/29 01:52:15.000  3664880.9939          1409189.2107          5009618.8869  1 
2018/10/29 01:52:16.000  3664881.7581          1409190.2593          5009617.5430  1 
2018/10/29 01:52:17.000  3664881.0557          1409189.5688          5009616.7793  1 
2018/10/29 01:52:18.000  3664881.4978          1409191.3158          5009618.3253  1 
2018/10/29 01:52:19.000  3664880.2441          1409190.5628          5009618.7434  1 
2018/10/29 01:52:20.000  3664881.9381          1409190.3965          5009617.5416  6 
2018/10/29 01:52:21.000  3664880.4658          1409190.0842          5009617.6201  6 
2018/10/29 01:52:22.000  3664881.2634          1409189.9078          5009618.6585  6 
2018/10/29 01:52:23.000  3664881.0539          1409190.1291          5009617.4453  6 
2018/10/29 01:52:24.000  3664879.7353          1409190.0846          5009618.8676  6 
2018/10/29 01:52:25.000  3664880.2033          1409189.8887          5009617.3186  6 
2018/10/29 01:52:26.000  3664880.6454          1409189.8051          5009619.4444  6 
2018/10/29 01:52:27.000  3664880.8523          1409190.0764          5009618.9738  6 
2018/10/29 01:52:28.000  3664880.5962          1409189.7842          5009618.2391  6 
2018/10/29 01:52:29.000  3664881.6354          1409191.1689          5009616.6854  6 
2018/10/29 01:52:30.000  3664880.0629     1409189.3535          5009617.4178  6 
2018/10/29 01:52:31.000  3664881.1733     1409189.5267          5009619.0930  6 
2018/10/29 01:52:32.000  3664880.8667     1409191.2944          5009617.9455  6 
2018/10/29 01:52:33.000  3664880.1827     1409191.1708          5009619.8346  6 
2018/10/29 01:52:34.000  3664879.6386     1409191.0470          5009618.8012  1 
2018/10/29 01:52:35.000  3664881.2057     1409190.8476          5009618.9971  1 
2018/10/29 01:52:36.000  3664880.8154     1409191.1814          5009618.4734  1 
2018/10/29 01:52:37.000  3664879.2724     1409190.4869          5009617.2916  1 
2018/10/29 01:52:38.000  3664881.2775     1409190.0819          5009617.5473  1 
2018/10/29 01:52:39.000  3664881.2454     1409189.8415          5009618.4968  1 
2018/10/29 01:52:40.000  3664879.7237     1409190.0864          5009618.5615  1 
2018/10/29 01:52:41.000  3664881.3259     1409189.1692          5009619.3712  1 
2018/10/29 01:52:42.000  3664879.5721     1409190.3028          5009617.8587  1 
2018/10/29 01:52:43.000  3664879.5360     1409191.3537          5009618.0501  6 
2018/10/29 01:52:44.000  3664881.0671     1409190.4039          5009618.4019  6 
2018/10/29 01:52:45.000  3664881.4260     1409188.8662          5009618.5409  6 
2018/10/29 01:52:46.000  3664881.5759     1409191.0518          5009617.7520  6 
2018/10/29 01:52:47.000  3664880.2221     1409191.4452          5009618.9618  6 
2018/10/29 01:52:48.000  3664880.9354          1409191.2042          5009617.7934  6 
2018/10/29 01:52:49.000  3664881.1497          1409190.9132          5009618.3032  6 
2018/10/29 01:52:50.000  3664880.6015          1409189.2508          5009618.1267  6 
2018/10/29 01:52:51.000  3664881.5690          1409190.1643          5009618.2103  6 
2018/10/29 01:52:52.000  3664880.2376          1409188.9625          5009620.0934  6 
2018/10/29 01:52:53.000  3664880.3948          1409189.8459          5009617.4721  6 
2018/10/29 01:52:54.000  3664881.9494          1409190.9378          5009617.9960  6 
2018/10/29 01:52:55.000  3664882.4901          1409189.8481          5009619.5883  6 
2018/10/29 01:52:56.000  3664880.0415          1409189.7830          5009618.3575  6 
2018/10/29 01:52:57.000  3664880.9277          1409190.3076          5009618.4669  6 
2018/10/29 01:52:58.000  3664880.9820          1409189.8968          5009618.3786  6 
2018/10/29 01:52:59.000  3664880.6644          1409190.0989          5009617.9148  6 
2018/10/29 01:53:00.000  3664880.9351          1409190.5560          5009618.1121  6 
2018/10/29 01:53:01.000  3664881.2113          1409191.1442          5009617.2700  6 
2018/10/29 01:53:02.000  3664881.1261          1409192.0090          5009618.4089  6 
2018/10/29 01:53:03.000  3664879.3662          1409189.4070          5009616.7747  6 
2018/10/29 01:53:04.000  3664882.4033          1409189.3526          5009619.2657  6 
2018/10/29 01:53:05.000  3664880.4067          1409190.9239          5009617.0756  6 
2018/10/29 01:53:06.000  3664881.0328          1409190.6480          5009618.5185  6 
2018/10/29 01:53:07.000  3664880.8890          1409190.7322          5009618.6677  6 
2018/10/29 01:53:08.000  3664881.3415          1409190.7622          5009618.1541  6 
2018/10/29 01:53:09.000  3664881.0471          1409188.7877          5009616.9060  6 
2018/10/29 01:53:10.000  3664880.3306          1409190.1828          5009618.5156  6 
2018/10/29 01:53:11.000  3664881.7399          1409191.1671          5009617.3478  6 
2018/10/29 01:53:12.000  3664880.4292          1409191.3432          5009618.5105  6 
2018/10/29 01:53:13.000  3664880.7366          1409190.8693          5009618.2422  6 
2018/10/29 01:53:14.000  3664880.9974          1409190.8830          5009618.1818  6 
2018/10/29 01:53:15.000  3664880.8531          1409191.0148          5009618.7643  6 
2018/10/29 01:53:16.000  3664880.5230          1409190.7790          5009619.8016  6 
2018/10/29 01:53:17.000  3664881.3735          1409191.0271          5009616.8956  6 
2018/10/29 01:53:18.000  3664881.9939          1409190.6751          5009618.5569  6 
2018/10/29 01:53:19.000  3664880.9344     1409190.6419          5009618.1546  6 
2018/10/29 01:53:20.000  3664880.4344     1409190.9160          5009617.9687  6 
2018/10/29 01:53:21.000  3664881.1323     1409191.8335          5009618.4881  6 
2018/10/29 01:53:22.000  3664881.1302     1409189.3927          5009618.2740  6 
2018/10/29 01:53:23.000  3664881.3098     1409189.4706          5009619.1849  6 
2018/10/29 01:53:24.000  3664881.3310     1409189.6079          5009617.9688  6 
2018/10/29 01:53:25.000  3664881.6144     1409188.9934          5009619.2727  6 
2018/10/29 01:53:26.000  3664879.8121     1409190.6124          5009618.1628  6 
2018/10/29 01:53:27.000  3664881.1161     1409191.5700          5009619.0243  6 
2018/10/29 01:53:28.000  3664880.7258     1409190.0351          5009617.6305  6 
2018/10/29 01:53:29.000  3664881.4062     1409190.8852          5009618.3253  6 
2018/10/29 01:53:30.000  3664879.6331     1409191.0656          5009617.8282  6 
2018/10/29 01:53:31.000  3664881.3429          1409190.0175          5009618.5612  6 
2018/10/29 01:53:32.000  3664880.8217          1409190.5491          5009617.3942  6 
2018/10/29 01:53:33.000  3664881.1820          1409189.9782          5009619.7431  6 









































